name,address,rating,totalReviews,reviewsScraped,phone,website,category,priceLevel,lat,lng,googleMapsUrl
"Room MLG Coffee","Jl. Purwakarta No.59, Antapani Kidul, Kec. Antapani, Kota Bandung, Jawa Barat 40291, Indonesia",4.1,190,100,"+62 823-1280-2726","https://www.instagram.com/room.mlg?igsh=OXI5aXBtenRoeThi","Kedai Kopi","",-6.9164429,107.6548919,"https://www.google.com/maps/search/?api=1&query=Room%20MLG%20Coffee&query_place_id=ChIJIYLjZKjnaC4RZISgJf7WPhs"
"TWIN CAFE AND CAKE","3PW6+475, Pasirjati, Kec. Ujung Berung, Kota Bandung, Jawa Barat 40616, Indonesia",,0,0,"+62 813-6666-9735","","Kafe","",-6.9047349,107.7107369,"https://www.google.com/maps/search/?api=1&query=TWIN%20CAFE%20AND%20CAKE&query_place_id=ChIJsc7KKc_daC4RKqlZNshy7dI"
"ABSOLUTE I-GAME & CAFE","Jl. Jatihandap No.21, Jatihandap, Kec. Mandalajati, Kota Bandung, Jawa Barat 40195, Indonesia",3.4,18,18,"","","Warnet","",-6.9009671,107.6573876,"https://www.google.com/maps/search/?api=1&query=ABSOLUTE%20I-GAME%20%26%20CAFE&query_place_id=ChIJO5Su_o3naC4RaNYsAoMJuKI"
"Rumah cafe","Jl. Cilengkrang 1 Jl. Cigagak Cipadung, Cisurupan, Kec. Cibiru, Kota Bandung, Jawa Barat, Indonesia",,0,0,"","","Kedai Kopi","",-6.909691,107.7232814,"https://www.google.com/maps/search/?api=1&query=Rumah%20cafe&query_place_id=ChIJ8TMm7_ndaC4RxWw3RIU7tyc"
"Box Coffice Antapani","Terminal Jl. Terusan Jakarta, Central Antapani, Antapani, Bandung City, West Java 40291, Indonesia",4.6,98,98,"","","Kedai Kopi","",-6.9151339,107.6657689,"https://www.google.com/maps/search/?api=1&query=Box%20Coffice%20Antapani&query_place_id=ChIJBw6E11znaC4RF2k6Sc4aBbU"
"Benjan Cafe","3PM3+H79, Sukamulya, Kec. Cinambo, Kota Bandung, Jawa Barat, Indonesia",,0,0,"","","Kedai Kopi","",-6.9160907,107.7032484,"https://www.google.com/maps/search/?api=1&query=Benjan%20Cafe&query_place_id=ChIJ53ACn_DdaC4R1VcLOKkLPXE"
"Sandis Cafe","Kp Jl. Cigagak Cipadung No.24, RT.005/RW.007, Cisurupan, Kec. Cibiru, Kota Bandung, Jawa Barat 40614, Indonesia",,0,0,"","","Kafe","",-6.9077396,107.7262019,"https://www.google.com/maps/search/?api=1&query=Sandis%20Cafe&query_place_id=ChIJf-WDPADdaC4RZb4XyzOkW3Q"
"Cafe","4P33+4W8, Pasirwangi, Kec. Ujung Berung, Kota Bandung, Jawa Barat 40618, Indonesia",,0,0,"","","Perhimpunan Pengembang Perumahan","",-6.8972042,107.7048194,"https://www.google.com/maps/search/?api=1&query=Cafe&query_place_id=ChIJ_ztCRMfdaC4Rfsz9hK7zXBk"
"Seblak teh nden cafe cafean ..cafe nyumput","Gg. Nangka I No.rt01 RW 05 no 24 A, Pasirwangi, Kec. Ujung Berung, Kota Bandung, Jawa Barat 40616, Indonesia",3.5,2,2,"","","Warung Makanan Kecil","",-6.9038741,107.7050091,"https://www.google.com/maps/search/?api=1&query=Seblak%20teh%20nden%20cafe%20cafean%20..cafe%20nyumput&query_place_id=ChIJRSO9ewDdaC4R4gELiel3CgI"
"Smooth Cafe","Pasirlayung, Kec. Cibeunying Kidul, Kota Bandung, Jawa Barat, Indonesia",,0,0,"","","Kafe","",-6.8946669,107.6561436,"https://www.google.com/maps/search/?api=1&query=Smooth%20Cafe&query_place_id=ChIJCQc0uprnaC4R1_7b5Nx8cN8"
"Jebak Cafe & Butik","3MW4+5W3, Jl. Antapani Lama, Cicaheum, Kec. Kiaracondong, Kota Bandung, Jawa Barat 40282, Indonesia",,0,0,"","","Kafe","",-6.9046047,107.6572856,"https://www.google.com/maps/search/?api=1&query=Jebak%20Cafe%20%26%20Butik&query_place_id=ChIJYUk4Xo3naC4RqQg144t360g"
"Uhuy Cafe New","PETUNJUK BAGIKAN SIMPAN, Jl. AH. Nasution Jl. Raya Ujung Berung No.349 800,0 m, Pasanggrahan, Kec. Ujung Berung, Kota Bandung, Jawa Barat 40614, Indonesia",,0,0,"+62 815-7312-7725","","Kafe","",-6.9194855,107.7086756,"https://www.google.com/maps/search/?api=1&query=Uhuy%20Cafe%20New&query_place_id=ChIJA3hk9W3DaC4RG55pQKxIKzQ"
"Bali Cafe Design","Jl. Golf Bar. III No.23, Sukamiskin, Kec. Arcamanik, Kota Bandung, Jawa Barat 40293, Indonesia",,0,0,"+62 22 61616694","https://balicafedesign.com/","Restoran atau Kafe","",-6.917982,107.671082,"https://www.google.com/maps/search/?api=1&query=Bali%20Cafe%20Design&query_place_id=ChIJGQR8slfdaC4R9HHUJR2XtpA"
"Cafe Tansu ( ketan susu )","Jl. Sukanegla No.49, Antapani Kulon, Kec. Antapani, Kota Bandung, Jawa Barat 40291, Indonesia",3,1,1,"","","Kafe","",-6.9085305,107.6528828,"https://www.google.com/maps/search/?api=1&query=Cafe%20Tansu%20(%20ketan%20susu%20)&query_place_id=ChIJwa-IOJLnaC4ROPOAR9azQUs"
"CAFE MAMIH","Jl. Jati Kencana No.16, Bumi Panyawangan, Kec. Cilengkrang, Kabupaten Bandung, Jawa Barat 40616, Indonesia",,0,0,"","","Kedai Kopi","",-6.8989146,107.6983643,"https://www.google.com/maps/search/?api=1&query=CAFE%20MAMIH&query_place_id=ChIJT-ZlbADdaC4R49-bwiqZhVg"
"Rest Area Palalangon Cafe","Palalangon No.18, Cipanjalu, Kec. Cilengkrang, Kabupaten Bandung, Jawa Barat 40616, Indonesia",5,29,29,"+62 831-4847-6135","","Kedai Sarapan","",-6.8784567,107.7153763,"https://www.google.com/maps/search/?api=1&query=Rest%20Area%20Palalangon%20Cafe&query_place_id=ChIJ_c8_cizdaC4RRpu0fBnLQNE"
"123 Cafe","Jl. Terusan Jakarta No.123, Antapani Tengah, Kec. Antapani, Kota Bandung, Jawa Barat 40291, Indonesia",2,1,1,"+62 22 7219464","","Kafe","",-6.9126733,107.6550146,"https://www.google.com/maps/search/?api=1&query=123%20Cafe&query_place_id=ChIJNTV8au7naC4RJ2B3ay6ADiw"
"Tequila cafe","Jl. Pasanggrahan I, Cisurupan, Kec. Cibiru, Kota Bandung, Jawa Barat 40614, Indonesia",,0,0,"+62 819-5373-4802","","Kedai Kopi","",-6.9136317,107.7161241,"https://www.google.com/maps/search/?api=1&query=Tequila%20cafe&query_place_id=ChIJ4-Epj2_daC4RrjXzu7JUFXQ"
"Cafe Ridwan wms","Jl. Cisaranten Kulon No.RT01 RW 07, Cisaranten Kulon, Kec. Arcamanik, Kota Bandung, Jawa Barat 40293, Indonesia",2,1,1,"+62 852-9437-3777","http://jendelailmudanteknologi.blogspot.com/","Kafe","",-6.9177982,107.6843114,"https://www.google.com/maps/search/?api=1&query=Cafe%20Ridwan%20wms&query_place_id=ChIJYSmr96PdaC4R_XTfe-oCn_0"
"Abah Cafe","3MWQ+C6F, Jl. Taruna Baru I, Pasir Endah, Kec. Ujung Berung, Kota Bandung, Jawa Barat 40619, Indonesia",4,4,4,"","","Kafe","",-6.9039484,107.688059,"https://www.google.com/maps/search/?api=1&query=Abah%20Cafe&query_place_id=ChIJQTi2EmrdaC4R0sc-55M2x0U"
"Mc Cafe","Pasirlayung, Kec. Cibeunying Kidul, Kota Bandung, Jawa Barat, Indonesia",,0,0,"","","Kafe","",-6.9003975,107.6537553,"https://www.google.com/maps/search/?api=1&query=Mc%20Cafe&query_place_id=ChIJfVAneZHnaC4Rp1P1yVpHlzA"
"Cafe Buruan Sunda","Jl. Cigiringsing No.13, RT.06/RW.04, Pasir Endah, Kec. Ujung Berung, Kabupaten Bandung, Jawa Barat 40619, Indonesia",,0,0,"+62 816-1129-004","","Kafe","",-6.8999641,107.690475,"https://www.google.com/maps/search/?api=1&query=Cafe%20Buruan%20Sunda&query_place_id=ChIJu2n3XX_daC4RcxvOJP4k9JE"
"Dawayatra Online Cafe","Jl. Permata Taman Sari XII No.4A, Cisaranten Kulon, Kec. Arcamanik, Kota Bandung, Jawa Barat 40123, Indonesia",4.4,9,9,"+62 818-0233-4916","","Kafetaria","",-6.920139,107.677242,"https://www.google.com/maps/search/?api=1&query=Dawayatra%20Online%20Cafe&query_place_id=ChIJ15FR16_naC4RlwZQZaehT5w"
"Karana Guesthouse Syariah Bandung Luang Cafe - Single Room","Karang Pamulang, Kec. Mandalajati, Kota Bandung, Jawa Barat, Indonesia",,0,0,"","https://br.bluepillow.com/search/68e3db9ef93025efada99ee6?dest=nuit&cat=Bed+and+breakfast&lat=-6.9046&lng=107.67559&language=pt","Rental Akomodasi","US$16",-6.9046001,107.6755905,"https://www.google.com/maps/search/?api=1&query=Karana%20Guesthouse%20Syariah%20Bandung%20Luang%20Cafe%20-%20Single%20Room&query_place_id=ChIJH4FGeWfdaC4Ruv4iKCVejJQ"
"Cafe Shof","4M8J+GMJ, Cikadut, Kec. Cimenyan, Kabupaten Bandung, Jawa Barat 40191, Indonesia",3,1,1,"+62 878-9040-9626","https://wa.me/qr/CQGFTPVZYRUXB1","Kafe","",-6.8836641,107.6816291,"https://www.google.com/maps/search/?api=1&query=Cafe%20Shof&query_place_id=ChIJnc21cAndaC4R7lHjiy1hWjs"
"Cafe Makkah","3MJP+JQ2, Cisaranten Bina Harapan, Kec. Arcamanik, Kota Bandung, Jawa Barat 40293, Indonesia",4.2,6,6,"","","Restoran","",-6.9184986,107.6869036,"https://www.google.com/maps/search/?api=1&query=Cafe%20Makkah&query_place_id=ChIJB6SMM0ndaC4R38zJ7LDq7kM"
"Van's Home n Cafe","Jatiendah, Kec. Cilengkrang, Kabupaten Bandung, Jawa Barat, Indonesia",,0,0,"","","Kafe","",-6.8970489,107.6949709,"https://www.google.com/maps/search/?api=1&query=Van's%20Home%20n%20Cafe&query_place_id=ChIJ7fuJBBPdaC4RTM2sOplt0yE"
"Satu Delapan Delapan Cafe","Jl. AH. Nasution No.188, Cipadung Kulon, Kec. Ujung Berung, Kota Bandung, Jawa Barat 40614, Indonesia",4,1,1,"+62 822-4114-9200","","Kafe","",-6.9167399,107.7053562,"https://www.google.com/maps/search/?api=1&query=Satu%20Delapan%20Delapan%20Cafe&query_place_id=ChIJUa_61m7daC4RjtF_tucMQ2M"
"Gobi Stay Cafe","Jl. Ciwaru, RT.04/RW04, Cilengkrang, Kec. Cilengkrang, Kabupaten Bandung, Jawa Barat 40614, Indonesia",3.5,4,4,"+62 853-2116-3178","","Kafe","",-6.8984284,107.7205388,"https://www.google.com/maps/search/?api=1&query=Gobi%20Stay%20Cafe&query_place_id=ChIJhZVL-u3daC4R-Sp-J5yske0"
"EX RUFUS GAMING CAFE ( CABANG UJUNGBERUNG )","Ruko Anggrek Residence, Jl. Rumah Sakit Blok AA-G, Sukamulya, Kec. Cinambo, Kota Bandung, Jawa Barat 45474, Indonesia",3.2,98,98,"+62 22 63748734","https://www.instagram.com/xrufusicafe/","Warnet","",-6.9170761,107.6991837,"https://www.google.com/maps/search/?api=1&query=EX%20RUFUS%20GAMING%20CAFE%20(%20CABANG%20UJUNGBERUNG%20)&query_place_id=ChIJH1-Ra03daC4RghWGUKyFY3Y"
"V'DA Cafe","Jl. Terusan Jakarta No.275, Antapani Wetan, Kec. Antapani, Kota Bandung, Jawa Barat 40000, Indonesia",,0,0,"+62 878-4573-5922","","Restoran","",-6.9143913,107.6641465,"https://www.google.com/maps/search/?api=1&query=V'DA%20Cafe&query_place_id=ChIJI1yLKcDnaC4RPlNzud7e-BI"
"D'cafe Tanjakan Panjang","4P45+9W7, Jl. Tanjakan Panjang, Pasirwangi, Kec. Ujung Berung, Kota Bandung, Jawa Barat, Indonesia",4,3,3,"+62 853-5533-1894","","Kedai Kopi","",-6.8940912,107.7098076,"https://www.google.com/maps/search/?api=1&query=D'cafe%20Tanjakan%20Panjang&query_place_id=ChIJYY5HmendaC4RrVnvSdfl0dE"
"Cafe kebun Bilqis","4MC7+V4Q, Cimenyan, Kec. Cimenyan, Kabupaten Bandung, Jawa Barat 40197, Indonesia",,0,0,"","","Kedai Kopi","",-6.8779538,107.6627178,"https://www.google.com/maps/search/?api=1&query=Cafe%20kebun%20Bilqis&query_place_id=ChIJhwtzXgDnaC4Rxi6YAOd4Gsw"
"Ringo cafe","Jl. Babakan Cimahi No.879, Girimekar, Kec. Cilengkrang, Kabupaten Bandung, Jawa Barat 40619, Indonesia",3.9,34,34,"+62 22 63728285","","Kafe","",-6.8794434,107.6984653,"https://www.google.com/maps/search/?api=1&query=Ringo%20cafe&query_place_id=ChIJBeJOKjXdaC4R6r49m_TMYe8"
"Alarose Cafe","Jl. Golf 2 No.6C, Cisaranten Bina Harapan, Kec. Arcamanik, Kota Bandung, Jawa Barat 40294, Indonesia",5,2,2,"","","Kafe","",-6.9155112,107.6891612,"https://www.google.com/maps/search/?api=1&query=Alarose%20Cafe&query_place_id=ChIJR8jP0KvdaC4R_tVe36nIGGk"
"Inoe Cafe","Jl, Ciharalang Kulon Cikahuripan No.4, Mekarsaluyu, Kec. Cimenyan, Kabupaten Bandung, Jawa Barat 40198, Indonesia",4.9,87,87,"+62 22 20544931","https://inoecafe.wixsite.com/website","Kafe","",-6.8573999,107.6573889,"https://www.google.com/maps/search/?api=1&query=Inoe%20Cafe&query_place_id=ChIJLe6YazrnaC4RZchZERt7MP0"
"Ramayana Cafe","Jl. Purwakarta No.104, Antapani Kidul, Kec. Antapani, Kota Bandung, Jawa Barat 40291, Indonesia",4.8,5,5,"+62 895-6087-30607","https://ramayana.co.id/","Kafe","$$",-6.9162184,107.6541159,"https://www.google.com/maps/search/?api=1&query=Ramayana%20Cafe&query_place_id=ChIJp78GgO_naC4RGZeU4zP4YOc"
"ARENA BOLA GAMES CAFE","Jl. Khp Hasan Mustopa No.240, Padasuka, Kec. Cibeunying Kidul, Kota Bandung, Jawa Barat 40125, Indonesia",4.2,64,64,"+62 813-2224-7218","","Warnet","",-6.9020528,107.6533933,"https://www.google.com/maps/search/?api=1&query=ARENA%20BOLA%20GAMES%20CAFE&query_place_id=ChIJP-vDdi_naC4R_lCgSy8nJCM"
"Cafe Omahe Abuela","Cisurupan, Kec. Cibiru, Kota Bandung, Jawa Barat 40614, Indonesia",4.3,3,3,"","","Bistro","",-6.9104023,107.7215879,"https://www.google.com/maps/search/?api=1&query=Cafe%20Omahe%20Abuela&query_place_id=ChIJO_mT9vHdaC4RdoIZsX2z074"
"CAFE SI KEMBAR","Pasanggrahan, Kec. Ujung Berung, Kota Bandung, Jawa Barat 40617, Indonesia",5,4,4,"+62 896-5623-7021","","Kafe","",-6.9058765,107.7184421,"https://www.google.com/maps/search/?api=1&query=CAFE%20SI%20KEMBAR&query_place_id=ChIJycpZ5STdaC4R3FnH_qXX0iM"
"Cafe Abang Sinulaki","4M94+VPW, Unnamed Road, Cimenyan, Kec. Cimenyan, Kabupaten Bandung, Jawa Barat 40197, Indonesia",4.4,7,7,"","","Kedai Kopi","",-6.880265,107.6568413,"https://www.google.com/maps/search/?api=1&query=Cafe%20Abang%20Sinulaki&query_place_id=ChIJ_02nunDnaC4R0plC5_AqlHg"
"Cafe D'Manggo","4M9V+925, Jl. Pamoyanan Lb., Sindanglaya, Kec. Cimenyan, Kabupaten Bandung, Jawa Barat 40195, Indonesia",5,5,5,"+62 813-1518-8354","","Restoran Keluarga","",-6.8815905,107.6926345,"https://www.google.com/maps/search/?api=1&query=Cafe%20D'Manggo&query_place_id=ChIJRUp67LvdaC4Rj2PNZn8gY6A"
"Cafe Abah","Jl. Terusan Jakarta No.130, Antapani Tengah, Kec. Antapani, Kota Bandung, Jawa Barat 40291, Indonesia",5,2,2,"+62 823-1891-9425","","Restoran","",-6.9131346,107.6578773,"https://www.google.com/maps/search/?api=1&query=Cafe%20Abah&query_place_id=ChIJdwTEKK_naC4RXA9K3RgqM54"
"Pappy Mommy Cafe","Jl. Vijayakusuma I No.3, Pasir Endah, Kec. Ujung Berung, Kota Bandung, Jawa Barat 40619, Indonesia",5,3,3,"+62 853-5330-8489","","Restoran","",-6.9057948,107.6912919,"https://www.google.com/maps/search/?api=1&query=Pappy%20Mommy%20Cafe&query_place_id=ChIJY8LgKADdaC4R6bcZ1RgD_qU"
"Bonceng Family Cafe","Jl. Pasir Malati, Melatiwangi, Kec. Cilengkrang, Kabupaten Bandung, Jawa Barat 40618, Indonesia",4.2,39,39,"+62 857-2450-9121","","Restoran","",-6.8882213,107.7074182,"https://www.google.com/maps/search/?api=1&query=Bonceng%20Family%20Cafe&query_place_id=ChIJbw7POB3daC4R2-0aYL3lfyE"
"Come On Cafe","Jl. Subang No.41, Antapani Tengah, Kec. Antapani, Kota Bandung, Jawa Barat 40291, Indonesia",4.4,19,19,"","","Kafe","",-6.9146491,107.6550777,"https://www.google.com/maps/search/?api=1&query=Come%20On%20Cafe&query_place_id=ChIJBzaayiznaC4RqkwSuN802hw"
"Distributor Kopi SH Juwara Cafe - Ustadz Sobri Bandung","Jl. Cicabe Gg. H. Durahim No.003, RT.005, Jatihandap, Cicaheum Bandung, Kota Bandung, Jawa Barat 40193, Indonesia",5,2,2,"+62 877-4793-8722","https://kaniyaherbal.biz.id/kopi-juwara","Toko kopi","",-6.9014284,107.6584956,"https://www.google.com/maps/search/?api=1&query=Distributor%20Kopi%20SH%20Juwara%20Cafe%20-%20Ustadz%20Sobri%20Bandung&query_place_id=ChIJb7uVzp3naC4R2j4wpRzxw6U"
"Cafe 379","12, No.23, Jl. Sekemala, Pasanggrahan, Kec. Ujung Berung, Kota Bandung, Jawa Barat 40617, Indonesia",5,4,4,"","","Restoran","",-6.9060413,107.7183144,"https://www.google.com/maps/search/?api=1&query=Cafe%20379&query_place_id=ChIJWeEcMQDdaC4RBXuB-GAelDA"
"Cafe Bahagia","4PG4+Q5F, Babakan Cimahi, Girimekar, Kec. Cilengkrang, Kabupaten Bandung, Jawa Barat 40619, Indonesia",5,8,8,"+62 812-4080-3030","","Kedai Kopi","",-6.8730736,107.7054133,"https://www.google.com/maps/search/?api=1&query=Cafe%20Bahagia&query_place_id=ChIJB0zriYLdaC4RsvT6CivH5zI"
"Cafe abex","3PP2+V93, Jl. Kp. Baru, Cigending, Kec. Ujung Berung, Kota Bandung, Jawa Barat 40611, Indonesia",5,2,2,"+62 896-6379-1992","","Kafe","",-6.9128521,107.7009198,"https://www.google.com/maps/search/?api=1&query=Cafe%20abex&query_place_id=ChIJ9-ob3D3daC4RlfSR_Sr7adQ"
"MANIK CAFE - BANDUNG UTARA","Jl. Arcamanik, Mekarmanik, Kec. Cimenyan, Kabupaten Bandung, Jawa Barat 40196, Indonesia",5,1,1,"+62 895-6369-22022","","Kedai Kopi","",-6.8752264,107.6906231,"https://www.google.com/maps/search/?api=1&query=MANIK%20CAFE%20-%20BANDUNG%20UTARA&query_place_id=ChIJmy9CHgDdaC4RbYqMMWAYj4c"
"HASS Car Wash & Cafe","Jl. Raya Ujung Berung No.312, Cisaranten Bina Harapan, Kec. Arcamanik, Kota Bandung, Jawa Barat 40294, Indonesia",4.3,231,100,"","","Tempat Pencucian Mobil","",-6.9123623,107.6913055,"https://www.google.com/maps/search/?api=1&query=HASS%20Car%20Wash%20%26%20Cafe&query_place_id=ChIJ02AKOb7daC4R8JvA17NQV6Y"
"Cafe Diva","3MXH+5VV, Pasir Impun, Kec. Mandalajati, Kota Bandung, Jawa Barat 40293, Indonesia",5,6,6,"+62 821-1801-9440","","Kedai Kopi","",-6.9020184,107.6796591,"https://www.google.com/maps/search/?api=1&query=Cafe%20Diva&query_place_id=ChIJCyCg-x7daC4RGEDyQ1isJzY"
"Tepi Kota Cafe","3MQC+G26, Sukamiskin, Kec. Arcamanik, Kota Bandung, Jawa Barat, Indonesia",4.2,17,17,"","","Kafe","",-6.9112163,107.6700245,"https://www.google.com/maps/search/?api=1&query=Tepi%20Kota%20Cafe&query_place_id=ChIJaarCGhndaC4R-qB69oGdfH8"
"Cafe Wanda Urban","komp. villa sutra indah No.6, Cimenyan, Kec. Cimenyan, Kabupaten Bandung, Jawa Barat 40197, Indonesia",4.4,7,7,"+62 818-622-092","","Kafe","",-6.8798022,107.6686033,"https://www.google.com/maps/search/?api=1&query=Cafe%20Wanda%20Urban&query_place_id=ChIJx8LdAH7naC4RB-xx8hllYjo"
"Chokollis Cafe Bandung Uber","3MPR+P63, Cisaranten Bina Harapan, Kec. Arcamanik, Kota Bandung, Jawa Barat 40294, Indonesia",5,1,1,"","","Kafe","",-6.9132293,107.6905484,"https://www.google.com/maps/search/?api=1&query=Chokollis%20Cafe%20Bandung%20Uber&query_place_id=ChIJL3sGZJLdaC4RE8zZ-iayR9U"
"Dodo Cafe Family","Kp. Cikaso Pasir Impun Atas No.41, Cikadut, Kec. Cimenyan, Kabupaten Bandung, Jawa Barat 40191, Indonesia",5,1,1,"","","Kedai Kopi","",-6.8845702,107.6825168,"https://www.google.com/maps/search/?api=1&query=Dodo%20Cafe%20Family&query_place_id=ChIJd212itrdaC4Rg2HVmNljYYU"
"Aster cafe","Jl. Panyandaan No.9, Mandalamekar, Kec. Cimenyan, Kabupaten Bandung, Jawa Barat 40193, Indonesia",5,1,1,"","","Kedai Kopi","",-6.8838804,107.6703333,"https://www.google.com/maps/search/?api=1&query=Aster%20cafe&query_place_id=ChIJtaencgDdaC4RRmF_mw6WEzo"
"Eating Sugar Cafe","Jl. Babakan Batawi No.18, Melatiwangi, Kec. Cilengkrang, Kota Bandung, Jawa Barat 40618, Indonesia",4.1,15,15,"+62 812-2110-6969","http://instagram.com/theeatingsugar","Restoran","$",-6.8972575,107.7045843,"https://www.google.com/maps/search/?api=1&query=Eating%20Sugar%20Cafe&query_place_id=ChIJERemEgXdaC4R6AYPmc2K_NM"
"ROTASI SPORT CAFE","Jl. Lb. Gede No.21, Padasuka, Kec. Cimenyan, Kabupaten Bandung, Jawa Barat 40911, Indonesia",5,5,5,"+62 896-7975-1417","https://instagram.com/rotasisportcafe?igshid=YmMyMTA2M2Y=","Kafetaria","",-6.8835419,107.65392,"https://www.google.com/maps/search/?api=1&query=ROTASI%20SPORT%20CAFE&query_place_id=ChIJ-RWr8jXnaC4RTT2b54adVLg"
"Cafe Ibu","Kampung Jl. Lb. Gede, RT.06/RW.04, Kelurahan Cimenyan, Kec. Cimenyan, Kabupaten Bandung, Jawa Barat 40197, Indonesia",5,11,11,"","","Kafe","",-6.8798627,107.6597759,"https://www.google.com/maps/search/?api=1&query=Cafe%20Ibu&query_place_id=ChIJPUPQo97naC4RKdxA7o82a0c"
"CAFE GOUTTE","Jl. Padasuka No.118, Pasirlayung, Kec. Cibeunying Kidul, Kota Bandung, Jawa Barat 40192, Indonesia",5,1,1,"+62 812-2172-9545","","Kafetaria","",-6.8951479,107.6562077,"https://www.google.com/maps/search/?api=1&query=CAFE%20GOUTTE&query_place_id=ChIJt2effmLnaC4RrlFXxqBkOF8"
"Gorogoro cafe","Jl. Purwakarta No.170, Antapani Kidul, Kec. Antapani, Kota Bandung, Jawa Barat 40291, Indonesia",4.5,21,21,"+62 821-3014-6567","","Kedai Kopi","",-6.9174424,107.6583036,"https://www.google.com/maps/search/?api=1&query=Gorogoro%20cafe&query_place_id=ChIJA4ldo-HnaC4Rno49bkHDdec"
"Cafe Orange Cigiringsing","Jl. Cigiringsing Gg. Inpres, Girimekar, Kec. Cilengkrang, Kabupaten Bandung, Jawa Barat 40619, Indonesia",4.5,32,32,"+62 882-1464-7271","","Kafe","",-6.8996646,107.6905509,"https://www.google.com/maps/search/?api=1&query=Cafe%20Orange%20Cigiringsing&query_place_id=ChIJZULuVqLdaC4R3NpBiWhDGuM"
"Cafe Kanicmate Bandung","Jl. Raya Pasir Impun Atas CF-1, Cikadut, Cimenyan, Bandung City, West Java 40191, Indonesia",4.7,26,26,"+62 813-2450-7864","","Restoran Sunda","",-6.8898595,107.6822439,"https://www.google.com/maps/search/?api=1&query=Cafe%20Kanicmate%20Bandung&query_place_id=ChIJ2dWMLm_daC4RwQMF8O2Rhhw"
"Cafe S'Kawan","Jl. Cimenyan No.106, Cimenyan, Kec. Cimenyan, Kabupaten Bandung, Jawa Barat 40191, Indonesia",4.7,3,3,"","","Kafe","",-6.8766576,107.6646534,"https://www.google.com/maps/search/?api=1&query=Cafe%20S'Kawan&query_place_id=ChIJORIVQADnaC4RsLHPhticgTE"
"Cafe madam","Jl. Tanjakan Panjang, Pasirjati, Kec. Ujung Berung, Kota Bandung, Jawa Barat, Indonesia",5,1,1,"","","Kedai Kopi","",-6.8936347,107.7102989,"https://www.google.com/maps/search/?api=1&query=Cafe%20madam&query_place_id=ChIJy_vbdQDdaC4RaZ8lY-qPbU0"
"Cafe & Resto 19","Jl. Pasir Impun No.33a, Karang Pamulang, Kec. Mandalajati, Kota Bandung, Jawa Barat 40195, Indonesia",4.9,15,15,"+62 811-2049-091","","Kafe","",-6.8953705,107.6770368,"https://www.google.com/maps/search/?api=1&query=Cafe%20%26%20Resto%2019&query_place_id=ChIJrU2C4A3daC4Rh-N082jlNLQ"
"Cafe Tambar Malem Pasirlayung","4M66+H33, Pasirlayung, Kec. Cimenyan, Kota Bandung, Jawa Barat, Indonesia",4.7,11,11,"+62 878-6011-1015","","Kedai Kopi","",-6.8886074,107.6601764,"https://www.google.com/maps/search/?api=1&query=Cafe%20Tambar%20Malem%20Pasirlayung&query_place_id=ChIJFV4gFwDnaC4R16uxgHbiHVg"
"Uber Corner - Cafe & Carwash","Jl. AH. Nasution No.KM.10, Pakemitan, Kec. Cinambo, Kota Bandung, Jawa Barat 45474, Indonesia",4.4,33,33,"","","Restoran Indonesia","",-6.9131036,107.6924981,"https://www.google.com/maps/search/?api=1&query=Uber%20Corner%20-%20Cafe%20%26%20Carwash&query_place_id=ChIJK8NXHq7daC4RqAfncrISGcQ"
"Bale-M Cafe","Jl. Arcamanik Endah No.74, Sukamiskin, Kec. Arcamanik, Kota Bandung, Jawa Barat 40293, Indonesia",4.4,375,100,"+62 813-7609-2232","","Restoran Indonesia","",-6.9203285,107.6720656,"https://www.google.com/maps/search/?api=1&query=Bale-M%20Cafe&query_place_id=ChIJ0yUN11DdaC4RJq3Y0-e5ndE"
"Canna Lily Cafe","Jl. Cilengkrang II, Palasari, Kec. Cibiru, Kota Bandung, Jawa Barat 40615, Indonesia",4.4,46,46,"+62 851-1738-9041","","Kedai Kopi","",-6.9161386,107.719721,"https://www.google.com/maps/search/?api=1&query=Canna%20Lily%20Cafe&query_place_id=ChIJ330GLY7daC4RqTMNxwIKs-c"
"Arizta Cafe & Wash","Jl. Sekehaji Raya No.24, Jatiendah, Kec. Cilengkrang, Kabupaten Bandung, Jawa Barat 40616, Indonesia",4.9,15,15,"+62 857-9560-8480","","Kafe","",-6.9005349,107.6930308,"https://www.google.com/maps/search/?api=1&query=Arizta%20Cafe%20%26%20Wash&query_place_id=ChIJbZoVLgDdaC4Rg9IrkECehNI"
"Cafe Palalangon","Jl. Palintang No.27, Cipanjalu, Kec. Cilengkrang, Kabupaten Bandung, Jawa Barat 40618, Indonesia",4.6,61,61,"+62 812-1169-7334","","Kafe","",-6.8734854,107.7175144,"https://www.google.com/maps/search/?api=1&query=Cafe%20Palalangon&query_place_id=ChIJnSrIWwXdaC4ROSTGtoKy19A"
"Savor","Jl. AH. Nasution Jl. Arjasari No.4, Antapani Wetan, Kec. Antapani, Kota Bandung, Jawa Barat 40291, Indonesia",5,8,8,"+62 851-7742-8255","","Kafe","",-6.9043677,107.6666017,"https://www.google.com/maps/search/?api=1&query=Savor&query_place_id=ChIJUbx0FADnaC4RLH8i4-dYvPQ"
"Cafe Berkah","Jalan Islamic Centre 1B No. 17, Cikadut, Kec. Cimenyan, Kabupaten Bandung, Jawa Barat 40191, Indonesia",4.7,23,23,"+62 821-3813-8564","https://gofood.link/a/yptSeAQ","Kafe","",-6.8825267,107.6730516,"https://www.google.com/maps/search/?api=1&query=Cafe%20Berkah&query_place_id=ChIJSZh0o4HdaC4RcUThNCAmK1M"
"M.J Cafe","Jl. Kosar Jl. Pasirjati Endah No.8, RT./RW/RW.05/05, Pasir Endah, Kec. Ujung Berung, Kota Bandung, Jawa Barat 40619, Indonesia",4.3,164,100,"","","Restoran","",-6.9037971,107.6909286,"https://www.google.com/maps/search/?api=1&query=M.J%20Cafe&query_place_id=ChIJc8_6bjHdaC4RPmWYDDs7ABg"
"Clove cafe and venue","4MCV+6HG, Jl. Sekesalam, Sindanglaya, Kec. Cimenyan, Kabupaten Bandung, Jawa Barat 40195, Indonesia",4.9,21,21,"+62 812-2399-1522","","Kafe","",-6.8794264,107.6939549,"https://www.google.com/maps/search/?api=1&query=Clove%20cafe%20and%20venue&query_place_id=ChIJ31MTVADdaC4R0AM16JfO8ww"
"Cafe abdee","Kp Jl. Arcamanik, RT.02/RW.04, Mekarmanik, Kec. Cimenyan, Kabupaten Bandung, Jawa Barat 40196, Indonesia",5,22,22,"+62 822-1500-6741","","Kafe","",-6.8636739,107.6946554,"https://www.google.com/maps/search/?api=1&query=Cafe%20abdee&query_place_id=ChIJp1taBQDdaC4R55_6JZe9bIw"
"Daily Cafe Arcamanik","Jl. Pacuan Kuda, Sukamiskin, Kec. Arcamanik, Kota Bandung, Jawa Barat 40293, Indonesia",4.9,53,53,"","https://www.instagram.com/dailycafe.idn/","Kedai Kopi","",-6.9101456,107.6763315,"https://www.google.com/maps/search/?api=1&query=Daily%20Cafe%20Arcamanik&query_place_id=ChIJwe_TKXXdaC4Ro1O12Qqc6Ro"
"LARCADE Cafe & Eatery","Griya Cipadung Asri Blok A 13-14, Cipadung, Kec. Cibiru, Kota Bandung, Jawa Barat 40614, Indonesia",4.7,77,77,"+62 851-5677-0414","http://linktr.ee/lrcd","Restoran","",-6.9159433,107.7240756,"https://www.google.com/maps/search/?api=1&query=LARCADE%20Cafe%20%26%20Eatery&query_place_id=ChIJI5ZINNbdaC4RuVt-Q5sLXpw"
"Kedai VW/CAfe Jana","4P5G+2H6, Cilengkrang, Kec. Cilengkrang, Kabupaten Bandung, Jawa Barat 40615, Indonesia",4.7,133,100,"+62 823-2068-9879","","Kafe","",-6.8924737,107.7264056,"https://www.google.com/maps/search/?api=1&query=Kedai%20VW%2FCAfe%20Jana&query_place_id=ChIJBU58g6rdaC4RAA5FPsHzR8c"
"Wolsom Coffee - Antapani","Jl. Sindang Sari III No.14, Antapani Wetan, Kec. Antapani, Kota Bandung, Jawa Barat 40291, Indonesia",5,14,14,"+62 811-1138-982","","Kedai Kopi","",-6.9104835,107.6633718,"https://www.google.com/maps/search/?api=1&query=Wolsom%20Coffee%20-%20Antapani&query_place_id=ChIJ27d2XDLnaC4RswSDDQKH4eM"
"Neno Coffee","Jl. Atput II No.13, Jatihandap, Kec. Mandalajati, Kota Bandung, Jawa Barat 40195, Indonesia",,0,0,"+62 816-4692-2997","","Kedai Kopi","",-6.9014993,107.6614299,"https://www.google.com/maps/search/?api=1&query=Neno%20Coffee&query_place_id=ChIJWbM-i3DnaC4RI_qylbKjHCI"
"Omah Putri Cafe & Resto / Omah Putih Cafe","Jl. Panorama Alam Kampung Cisanggarung Desa, RT.04/RW.12, Cikadut, Kec. Cimenyan, Kabupaten Bandung, Jawa Barat 40196, Indonesia",4.5,818,100,"+62 819-7774-7477","https://www.instagram.com/omahputricafferesto/","Kafe","",-6.8696677,107.680748,"https://www.google.com/maps/search/?api=1&query=Omah%20Putri%20Cafe%20%26%20Resto%20%2F%20Omah%20Putih%20Cafe&query_place_id=ChIJM2PZF3jdaC4R2f96hyPlzPo"
"Dr.Ist Workshop & Cafe","Jl. Cicukang No.50, Cisaranten Bina Harapan, Kec. Arcamanik, Kota Bandung, Jawa Barat 40294, Indonesia",5,12,12,"+62 896-5697-6664","","Kafe","",-6.9136915,107.6834224,"https://www.google.com/maps/search/?api=1&query=Dr.Ist%20Workshop%20%26%20Cafe&query_place_id=ChIJ8c9WF97daC4R3ynEdHYbaao"
"KD coffee shop","Jl. Cilengkrang 1 No.25, RT.02/RW.05, Cisurupan, Kec. Cibiru, Kota Bandung, Jawa Barat 40614, Indonesia",4.6,36,36,"","","Kedai Kopi","",-6.9141434,107.7189857,"https://www.google.com/maps/search/?api=1&query=KD%20coffee%20shop&query_place_id=ChIJJwumTBrdaC4RRGKYvRDj3ig"
"Cafe Lima","Jl. Pasir Malaka No.380 Blok D, Jatiendah, Cilengkrang, Bandung Regency, West Java 40616, Indonesia",4.8,12,12,"+62 817-0277-790","","Kafe","",-6.8997154,107.7011769,"https://www.google.com/maps/search/?api=1&query=Cafe%20Lima&query_place_id=ChIJCTjp2RbdaC4RE7jJxhgXW7U"
"Florist Garden Coffee","Florist Garden Coffee, Palasari, Cibiru, Bandung City, West Java 40615, Indonesia",5,25,25,"+62 888-2309-185","","Kedai Kopi","",-6.9149725,107.7202621,"https://www.google.com/maps/search/?api=1&query=Florist%20Garden%20Coffee&query_place_id=ChIJgQINi37daC4RXGL4GLmV1t8"
"Arkan Cafe","4P28+9W9, Jl. Nagrog Telok Dengklok, Ciporeat, Kec. Cilengkrang, Kabupaten Bandung, Jawa Barat 40617, Indonesia",5,3,3,"+62 813-2197-1863","","Kafe","",-6.8990875,107.7173736,"https://www.google.com/maps/search/?api=1&query=Arkan%20Cafe&query_place_id=ChIJw395CDndaC4R0NsKNbxr2J0"
"Kalisar stone cafe","Kp, Jl. Panyandaan atas, Kabupaten Bandung, Jawa Barat 40193, Indonesia",5,106,100,"+62 811-214-196","","Restoran","",-6.8753941,107.6738889,"https://www.google.com/maps/search/?api=1&query=Kalisar%20stone%20cafe&query_place_id=ChIJr7J7c6rdaC4REdoeiSpheo0"
"Kyandra Coffee House 39","Jl. Bulldozer No.138, Cisaranten Bina Harapan, Kec. Arcamanik, Kota Bandung, Jawa Barat 40294, Indonesia",,0,0,"+62 811-2282-183","","Kafe","",-6.9142952,107.6854736,"https://www.google.com/maps/search/?api=1&query=Kyandra%20Coffee%20House%2039&query_place_id=ChIJHwYMt3ndaC4R2gaFxr1Ly-U"
"Senyaman Coffee & Cafe","Jl. Indramayu No.29, Antapani Kidul, Kec. Antapani, Kota Bandung, Jawa Barat 40291, Indonesia",4.8,68,68,"","","Restoran","",-6.918855,107.6576256,"https://www.google.com/maps/search/?api=1&query=Senyaman%20Coffee%20%26%20Cafe&query_place_id=ChIJDbN4ewDnaC4RVTEAUdwL5Z4"
"FOLKOPIA Cafe & Eatery","Griya, Jl. Kusuma Asri Blk. A No.13-14, Cipadung, Kota Bandung, Jawa Barat 40614, Indonesia",5,9,9,"+62 851-5677-0414","https://instagram.com/folkopia","Restoran","",-6.9159289,107.7240918,"https://www.google.com/maps/search/?api=1&query=FOLKOPIA%20Cafe%20%26%20Eatery&query_place_id=ChIJrzIucCLdaC4RUigF0KOKEJw"
"GOBANG GOCHIZ COFFEE & TEA","Komp. Cijambe Indah Jl. Vijaya Kusuma 2 Blok A-26 Ruko No. 6, Pasir Endah, Kec. Ujung Berung, Kabupaten Bandung, Jawa Barat 40619, Indonesia",,0,0,"+62 818-0418-3717","http://instagram.com/makna_coffee","Kedai Kopi","",-6.9060069,107.691417,"https://www.google.com/maps/search/?api=1&query=GOBANG%20GOCHIZ%20COFFEE%20%26%20TEA&query_place_id=ChIJ5QjjTrrdaC4RB46rCgv2ApM"
"Stream Coffee Express","Jl. Senam Indah VI No.2B, Sukamiskin, Kec. Arcamanik, Kota Bandung, Jawa Barat 40293, Indonesia",4.7,68,68,"+62 858-6400-1725","http://www.instagram.com/streamcoffeeid","Kedai Kopi","$",-6.9138025,107.6692077,"https://www.google.com/maps/search/?api=1&query=Stream%20Coffee%20Express&query_place_id=ChIJjbNp_U3maC4RdZ1VJX8-Lbs"
"CAFE BENGKEL 41","Kp Pasirjati, Jl. Jati Arum No.41, RT.004/RW.009, Jatiendah, Kec. Cilengkrang, Kota Bandung, Jawa Barat 40616, Indonesia",4.9,23,23,"+62 812-2181-1525","","Kafe","",-6.8961351,107.6976342,"https://www.google.com/maps/search/?api=1&query=CAFE%20BENGKEL%2041&query_place_id=ChIJ85TPl-3daC4RL17HK31FqJs"
"Little Sky Coffee","Jl. Pasirluhur No.77, Padasuka, Kec. Cimenyan, Kabupaten Bandung, Jawa Barat 40197, Indonesia",4.8,44,44,"+62 877-3637-7077","","Kedai Kopi","",-6.8822909,107.6584406,"https://www.google.com/maps/search/?api=1&query=Little%20Sky%20Coffee&query_place_id=ChIJ87IvYe_naC4R2QUbmfYwGa0"
"Daily Café","Jl. Pacuan Kuda, Sukamiskin, Kec. Arcamanik, Kota Bandung, Jawa Barat 40291, Indonesia",5,16,16,"","https://www.instagram.com/dailycafe.idn?igsh=OHBzMHBmcGh1bHc1","Kedai Kopi","",-6.9104324,107.6774377,"https://www.google.com/maps/search/?api=1&query=Daily%20Caf%C3%A9&query_place_id=ChIJtanIdT_DaC4Rv8VTv2vR3n0"
"Shankara Coffee","Jl. Jatihandap No.35, RT.03/ RW15, Jatihandap, Kec. Mandalajati, Kota Bandung, Jawa Barat 40193, Indonesia",,0,0,"+62 851-5635-8942","","Kedai Kopi","",-6.8985068,107.6576538,"https://www.google.com/maps/search/?api=1&query=Shankara%20Coffee&query_place_id=ChIJgVteRZ_naC4RFkrL6i5B-6c"
"Seven AM Art & Design Studio","Jl. Cinangka No.58, Pasirwangi, Kec. Ujung Berung, Kota Bandung, Jawa Barat 40618, Indonesia",5,7,7,"+62 819-1036-2221","","Perancang Grafis","",-6.9003533,107.7045312,"https://www.google.com/maps/search/?api=1&query=Seven%20AM%20Art%20%26%20Design%20Studio&query_place_id=ChIJC4sapbndaC4Rd_GbGOVdQ0A"
"Warung Kopi Kiwari","Jl. Palapa No.55, Padasuka, Kec. Cimenyan, Kabupaten Bandung, Jawa Barat 40911, Indonesia",4.6,885,100,"+62 881-0823-46478","","Kedai Kopi","",-6.8829946,107.6624184,"https://www.google.com/maps/search/?api=1&query=Warung%20Kopi%20Kiwari&query_place_id=ChIJ5TL10XjnaC4RFTtUobexqhw"
"Warkop Abas","Jl. Endah Sari, Cisaranten Kulon, Kec. Arcamanik, Kota Bandung, Jawa Barat 40294, Indonesia",4.8,8,8,"","","Kedai Kopi","",-6.9164968,107.6800115,"https://www.google.com/maps/search/?api=1&query=Warkop%20Abas&query_place_id=ChIJW7ROUQDdaC4RnHn0u3b-6AY"
"Jeforty Coffee House","Komplek Griya Asri Jl. Cigending Blok J40, Pasirwangi, Ujung Berung, Bandung Regency, West Java, Indonesia",,0,0,"","","Kedai Kopi","",-6.9052873,107.7069038,"https://www.google.com/maps/search/?api=1&query=Jeforty%20Coffee%20House&query_place_id=ChIJR5K4EgDdaC4Rf-G1TvLCEhA"
"Warmindo Warung Loder","Jl. Cimenyan Kolot No.14, Cimenyan, Kec. Cimenyan, Kabupaten Bandung, Jawa Barat 40197, Indonesia",5,4,4,"","","Kedai Kopi","",-6.8626146,107.6647283,"https://www.google.com/maps/search/?api=1&query=Warmindo%20Warung%20Loder&query_place_id=ChIJOWpewcfnaC4RfG_rTxaw17w"
"Cafe Serdadu","4MFR+Q8F, Mekarmanik, Kec. Cimenyan, Kabupaten Bandung, Jawa Barat 40196, Indonesia",4.3,120,100,"+62 812-4015-643","","Restoran","",-6.8755517,107.6908046,"https://www.google.com/maps/search/?api=1&query=Cafe%20Serdadu&query_place_id=ChIJjayOEDvdaC4RMVkFh2Jxx70"
"Double Strain , Coffee & Mocktail Bar","Jalan Sekehonje Girimekar Kec.Cilengkrang, Kec. Ujung Berung, Kabupaten Bandung, Jawa Barat 40619, Indonesia",4.9,66,66,"","https://instagram.com/doublestrain.mocktl.grind?utm_medium=copy_link","Kedai Kopi","",-6.8929034,107.6974495,"https://www.google.com/maps/search/?api=1&query=Double%20Strain%20%2C%20Coffee%20%26%20Mocktail%20Bar&query_place_id=ChIJozjVlWLnaC4R59cIEqm8S5c"
"IQOS Partner K cafe & Coffe Shop","Jl. AH. Nasution No.957, Antapani Wetan, Kec. Antapani, Kota Bandung, Jawa Barat 40291, Indonesia",4.8,5,5,"","","Ahli tembakau","",-6.9041208,107.6659764,"https://www.google.com/maps/search/?api=1&query=IQOS%20Partner%20K%20cafe%20%26%20Coffe%20Shop&query_place_id=ChIJJTgbJADnaC4RpZlzExiLC-M"
"Gempol Cafe & Resto","Jl. Arcamanik Endah No.9A, Sukamiskin, Kec. Arcamanik, Kota Bandung, Jawa Barat 40293, Indonesia",4.3,228,100,"+62 819-3148-4448","","Kafe","",-6.9132412,107.6775695,"https://www.google.com/maps/search/?api=1&query=Gempol%20Cafe%20%26%20Resto&query_place_id=ChIJacn0VlrdaC4R0PXTqJliats"
"LUANG Cafe dan KARANA Guest House Bandung","Jl. AH. Nasution No.111, Karang Pamulang, Kec. Mandalajati, Kota Bandung, Jawa Barat 40195, Indonesia",4.9,244,100,"+62 811-209-184","","Kafe","US$13",-6.9044461,107.6745126,"https://www.google.com/maps/search/?api=1&query=LUANG%20Cafe%20dan%20KARANA%20Guest%20House%20Bandung&query_place_id=ChIJY-a_HmbdaC4RIYIsAnOlCzc"
"Garasi Tempoer Car Wash and Coffee Bar","Jl. Atletik IX No.1, Sukamiskin, Kec. Arcamanik, Kota Bandung, Jawa Barat 40293, Indonesia",4.4,79,79,"+62 812-2223-7801","http://instagram.com/garasitempoer","Tempat Pencucian Mobil","",-6.9175975,107.6716388,"https://www.google.com/maps/search/?api=1&query=Garasi%20Tempoer%20Car%20Wash%20and%20Coffee%20Bar&query_place_id=ChIJV8xHOfTdaC4RG-Pa0X6XyQE"
"DIANTARA KOPI","Cibejog, Girimekar, Kec. Cilengkrang, Kabupaten Bandung, Jawa Barat 40619, Indonesia",4.6,66,66,"+62 858-4606-6361","http://instagram.com/di.anta.ra","Kedai Kopi","",-6.885981,107.7016766,"https://www.google.com/maps/search/?api=1&query=DIANTARA%20KOPI&query_place_id=ChIJYUHkW1LdaC4RePD6z8LoJ7M"
"Grow Billiard and Cafe Bandung","Jl. AH. Nasution No.45, Cigending, Kec. Ujung Berung, Kota Bandung, Jawa Barat 40611, Indonesia",4.7,94,94,"+62 822-1868-8865","","Kafe","",-6.9127643,107.6935171,"https://www.google.com/maps/search/?api=1&query=Grow%20Billiard%20and%20Cafe%20Bandung&query_place_id=ChIJP66cG1DdaC4RHR3a85IWMao"
"Twin Sharing Coffee","Jl. Purwakarta No.230b, Antapani Kidul, Kec. Antapani, Kota Bandung, Jawa Barat 42091, Indonesia",4.8,4,4,"+62 821-2439-2745","","Kedai Kopi","",-6.9171667,107.6618341,"https://www.google.com/maps/search/?api=1&query=Twin%20Sharing%20Coffee&query_place_id=ChIJnUmn9AnnaC4RZs8lgCbvAug"
"Kalitaliberika Coffee Shop","Jl. Mayang Cinde No.39, Pasir Endah, Kec. Ujung Berung, Kota Bandung, Jawa Barat 40619, Indonesia",5,4,4,"+62 895-4210-92807","","Kafe","",-6.9033163,107.6888747,"https://www.google.com/maps/search/?api=1&query=Kalitaliberika%20Coffee%20Shop&query_place_id=ChIJw-3CpOPdaC4R07kl4lo70Pk"
"Coffee Jow","Jl. Rumah Sakit No.50 B, Pakemitan, Kec. Cinambo, Kota Bandung, Jawa Barat 40296, Indonesia",4,6,6,"+62 821-2727-6242","","Kedai Kopi","",-6.9174122,107.6986498,"https://www.google.com/maps/search/?api=1&query=Coffee%20Jow&query_place_id=ChIJ5-pcrsrdaC4RVh5vyCG4UZc"
"Balantik Coffee Shop & Roastery","Gg. II Jl. Babakan Cihapit No.9, Pasirlayung, Kec. Cibeunying Kidul, Kota Bandung, Jawa Barat 40192, Indonesia",5,5,5,"+62 857-2263-4596","","Toko","",-6.8991437,107.6547382,"https://www.google.com/maps/search/?api=1&query=Balantik%20Coffee%20Shop%20%26%20Roastery&query_place_id=ChIJSROk7XvnaC4RJIXPKDO6kAQ"
"Nurona Space","Jl. Arcamanik Endah No.40A, Sukamiskin, Kec. Arcamanik, Kota Bandung, Jawa Barat 40293, Indonesia",4.7,684,100,"+62 889-8978-2975","https://msha.ke/nurona/","Kafe","",-6.9175113,107.6754788,"https://www.google.com/maps/search/?api=1&query=Nurona%20Space&query_place_id=ChIJa1i4hyrdaC4RHJAI6i7lt7A"
"Eighty Nine Coffee Shop","Jl. AH. Nasution No.27-33, Karang Pamulang, Kec. Mandalajati, Kota Bandung, Jawa Barat 40293, Indonesia",5,3,3,"","","Kedai Kopi","",-6.9040794,107.6675803,"https://www.google.com/maps/search/?api=1&query=Eighty%20Nine%20Coffee%20Shop&query_place_id=ChIJr9HC0Q7naC4RGb5jTLDVEL0"
"El Clasico Coffee","Jl. Pacuan Kuda No.145 B, Sukamiskin, Kec. Arcamanik, Kota Bandung, Jawa Barat 40291, Indonesia",4.2,28,28,"+62 838-2089-6176","","Kedai Kopi","$$",-6.9113484,107.678022,"https://www.google.com/maps/search/?api=1&query=El%20Clasico%20Coffee&query_place_id=ChIJC8XndFvdaC4Rwn-wgYIIcF8"
"LASUMI SPKLU Carwash & Coffeeshop (One Stop Service Area)","Jl. AH. Nasution No.114, Sukamiskin, Kec. Arcamanik, Kota Bandung, Jawa Barat, Indonesia",4.6,39,39,"","","Tempat Pencucian Mobil","",-6.9048946,107.6740126,"https://www.google.com/maps/search/?api=1&query=LASUMI%20SPKLU%20Carwash%20%26%20Coffeeshop%20(One%20Stop%20Service%20Area)&query_place_id=ChIJKy_RPgDdaC4REuqtm0mVdtY"
"Jeda Cafe","4MG8+P5W, Jl. Padasuka Atas, RT.01/RW.11, kampung Balong, Cimenyan, Kec. Cimenyan, Kabupaten Bandung, Jawa Barat, Indonesia",4.8,4,4,"","","Kedai Kopi","",-6.8731269,107.665443,"https://www.google.com/maps/search/?api=1&query=Jeda%20Cafe&query_place_id=ChIJFfoSOwDnaC4RnedYe_kC7es"
"Haha Kohi","Jl. Cilengkrang 1 No.A1/50, Cisurupan, Kec. Cibiru, Kabupaten Bandung, Jawa Barat 40615, Indonesia",4.8,204,100,"+62 822-9707-1880","https://www.instagram.com/haha_kohi","Kedai Kopi","",-6.908904,107.7245002,"https://www.google.com/maps/search/?api=1&query=Haha%20Kohi&query_place_id=ChIJz9BYbN_daC4RnYcIV0meDd0"
"J.co Donuts & Coffee","Ubertos, Jl. AH. Nasution No.46A, Pakemitan, Kec. Cinambo, Kota Bandung, Jawa Barat 40294, Indonesia",4.3,415,100,"+62 21 1500377","http://www.jcodonuts.com/","Toko Roti","",-6.9143925,107.6967009,"https://www.google.com/maps/search/?api=1&query=J.co%20Donuts%20%26%20Coffee&query_place_id=ChIJtflbNDjdaC4RTunN62cNoa8"
"Sej Coffee Pickup Point","Komplek Pasirjati Indah Residence Blk. G3 No.36, Jatiendah, Cilengkrang, Bandung Regency, West Java 40616, Indonesia",5,9,9,"+62 851-5527-5755","","Kedai Kopi","",-6.9012002,107.6955645,"https://www.google.com/maps/search/?api=1&query=Sej%20Coffee%20Pickup%20Point&query_place_id=ChIJPd0TGrjdaC4RYn5m90fb_a4"
"Palasha Cafe & Resto","Jl. Babakan Batawi No.82, RT./rw/RW.04/08, Pasirwangi, Kec. Ujung Berung, Kota Bandung, Jawa Barat 40618, Indonesia",3.6,69,69,"+62 823-4345-5509","","Kafe","",-6.8925703,107.7057747,"https://www.google.com/maps/search/?api=1&query=Palasha%20Cafe%20%26%20Resto&query_place_id=ChIJO6JJ2UzdaC4RJImCdZiZ7Y8"
"pawon coffee","kp. mawar, rt01, rw02, Mekarmanik, Kec. Cimenyan, Kabupaten Bandung, Jawa Barat 40196, Indonesia",3.5,2,2,"","","Kedai Kopi","",-6.8720494,107.6963994,"https://www.google.com/maps/search/?api=1&query=pawon%20coffee&query_place_id=ChIJt1zAsZ_daC4RYHdM4fKLf9o"
"Mori Go Coffee","Jl. Purwakarta No.139F, Antapani Tengah, Kec. Antapani, Kota Bandung, Jawa Barat 40291, Indonesia",5,1,1,"","","Kedai Kopi","",-6.9172646,107.6587784,"https://www.google.com/maps/search/?api=1&query=Mori%20Go%20Coffee&query_place_id=ChIJIaq_G7nnaC4RL2rQTe70zk8"
"Coffee Street Antapani","Jl. Indramayu No.2, Antapani Kidul, Kec. Antapani, Kota Bandung, Jawa Barat 40291, Indonesia",4.8,6,6,"+62 822-1850-0401","","Kafe","",-6.9177923,107.6574513,"https://www.google.com/maps/search/?api=1&query=Coffee%20Street%20Antapani&query_place_id=ChIJy-SoT1_naC4RmjuJZd4tBwc"
"Our Coffee","4P99+WPX, Ciporeat, Kec. Cilengkrang, Kabupaten Bandung, Jawa Barat 40617, Indonesia",5,1,1,"+62 877-3082-8438","","Kedai Kopi","",-6.8800874,107.7193373,"https://www.google.com/maps/search/?api=1&query=Our%20Coffee&query_place_id=ChIJx9_Azi_daC4RNU0-gJBVRUk"
"Coffee Love Story","4M3H+JR7, Pasir Impun, Kec. Mandalajati, Kota Bandung, Jawa Barat 40195, Indonesia",5,8,8,"+62 812-1063-5022","","Kedai Kopi","",-6.8959594,107.6795471,"https://www.google.com/maps/search/?api=1&query=Coffee%20Love%20Story&query_place_id=ChIJ9SoAh5XdaC4R5Rau13orqdU"
"D'Edge Coffee","PERUMAHAN PONDOK MULYA MELATI WANGI No.14A BLOK D, Melatiwangi, Kec. Cilengkrang, Kabupaten Bandung, Jawa Barat 40618, Indonesia",3.9,74,74,"+62 821-2127-9718","https://instagram.com/dedgecoffee?igshid=MzNlNGNkZWQ4Mg==","Kedai Kopi","",-6.8914706,107.7018044,"https://www.google.com/maps/search/?api=1&query=D'Edge%20Coffee&query_place_id=ChIJrbrWzf3daC4RhFOMEUrpJe0"
"288 Coffee","Jl. AH. Nasution No.288, Cisaranten Bina Harapan, Kec. Arcamanik, Kota Bandung, Jawa Barat 40294, Indonesia",5,8,8,"+62 857-9570-5952","","Kedai Kopi","",-6.9101734,107.6892822,"https://www.google.com/maps/search/?api=1&query=288%20Coffee&query_place_id=ChIJXUTpftPdaC4RUQXv1mulli4"
"CALIXTO COFFEE","Gg. Karanganyar No.7, RT.03/RW.09, Pasirjati, Kec. Ujung Berung, Kota Bandung, Jawa Barat 40616, Indonesia",5,4,4,"+62 821-2659-9381","","Kedai Kopi","",-6.9097479,107.7096124,"https://www.google.com/maps/search/?api=1&query=CALIXTO%20COFFEE&query_place_id=ChIJJV_nrxbdaC4RKgOFq2LRPgw"
"Mih Kocok Mang Dadeng Arcamanik","Jl. Arcamanik Endah No.103, Sukamiskin, Kec. Arcamanik, Kota Bandung, Jawa Barat 40293, Indonesia",4.3,544,100,"+62 881-0223-96508","","Restoran Bakso","",-6.9194652,107.6736052,"https://www.google.com/maps/search/?api=1&query=Mih%20Kocok%20Mang%20Dadeng%20Arcamanik&query_place_id=ChIJ98UtuVbdaC4RcpDmWvyMuec"
"Point Coffee","Jl. Arcamanik Endah No.103, Sukamiskin, Kec. Arcamanik, Kabupaten Bandung Barat, Jawa Barat 40562, Indonesia",4,39,39,"+62 21 1500280","https://pointcoffee.id/","Kedai Kopi","",-6.9196012,107.673077,"https://www.google.com/maps/search/?api=1&query=Point%20Coffee&query_place_id=ChIJk-NUJ77daC4R2xghafoMp5k"
"UMAN COFFEE SHOP","4PCF+6RF, Cipatat, Ciporeat, Kec. Cilengkrang, Kabupaten Bandung, Jawa Barat 40617, Indonesia",4.5,2,2,"+62 858-8248-7024","","Kedai Kopi","",-6.8794442,107.7245529,"https://www.google.com/maps/search/?api=1&query=UMAN%20COFFEE%20SHOP&query_place_id=ChIJt5iaK-ndaC4R_oXnnjBzHkU"
"TOMORO COFFEE - Antapani","Jl. Terusan Jakarta No.84, Cicaheum, Kec. Antapani, Kota Bandung, Jawa Barat 40282, Indonesia",4.4,157,100,"","","Kedai Kopi","",-6.9125718,107.6538502,"https://www.google.com/maps/search/?api=1&query=TOMORO%20COFFEE%20-%20Antapani&query_place_id=ChIJy4KkdwDnaC4Rj5koMVKWVZI"
"Kedai Kawani","Jl. Terusan Jakarta, Antapani Wetan, Kec. Antapani, Kota Bandung, Jawa Barat 40291, Indonesia",4.2,404,100,"+62 823-1683-7096","","Kafe","",-6.9149242,107.6663713,"https://www.google.com/maps/search/?api=1&query=Kedai%20Kawani&query_place_id=ChIJA3JAm_fnaC4RZ_7IWJDQws4"
"Siklus Coffee","3PR8+7CF, Pasanggrahan, Kec. Ujung Berung, Kota Bandung, Jawa Barat 40617, Indonesia",5,10,10,"+62 821-1337-8831","https://www.instagram.com/sikluscoffee.bdg?igsh=MzhzNTJjdG44Yzdj","Kedai Kopi","",-6.9094592,107.716009,"https://www.google.com/maps/search/?api=1&query=Siklus%20Coffee&query_place_id=ChIJZT3nLR7daC4Rk-c8rRwTNv4"
"Coffee Shop Lasumi Alus","Jalan Saharjo No.1, Sukamiskin, Kec. Arcamanik, Kota Bandung, Jawa Barat, Indonesia",5,7,7,"+62 811-2221-7878","","Restoran","",-6.9048138,107.6742778,"https://www.google.com/maps/search/?api=1&query=Coffee%20Shop%20Lasumi%20Alus&query_place_id=ChIJNWnypU_daC4ROgbjUFN6WhA"
"Mochi,cemilan mochi,mochi padat,variant mochi,aneka coffee,minuman series yakult (Mocha Mochi Antapani)","Jl. Purwakarta No.230b, Antapani Kidul, Kec. Antapani, Kota Bandung, Jawa Barat 40291, Indonesia",4.7,12,12,"+62 819-9956-1785","","Toko Kue","",-6.9171594,107.661828,"https://www.google.com/maps/search/?api=1&query=Mochi%2Ccemilan%20mochi%2Cmochi%20padat%2Cvariant%20mochi%2Caneka%20coffee%2Cminuman%20series%20yakult%20(Mocha%20Mochi%20Antapani)&query_place_id=ChIJLapQ337naC4RQMJGUMy8QqQ"
"Twenty-One Coffe Shop","Jl. Jatihandap, Jatihandap, Kec. Mandalajati, Kabupaten Bandung, Jawa Barat 40193, Indonesia",5,1,1,"+62 896-5596-7234","","Kedai Kopi","",-6.8872077,107.6673005,"https://www.google.com/maps/search/?api=1&query=Twenty-One%20Coffe%20Shop&query_place_id=ChIJKzCDzAfnaC4RhPmDN1OHwdc"
"Coffee Tiga","Jl. Tanjung Sari Raya No.16, Antapani Wetan, Kec. Antapani, Kota Bandung, Jawa Barat 40291, Indonesia",5,5,5,"","","Kedai Kopi","",-6.9141425,107.6669352,"https://www.google.com/maps/search/?api=1&query=Coffee%20Tiga&query_place_id=ChIJi3xa2PDnaC4RcouhoTAtDSY"
"SAFIRA CAFE","KOMPLEK GRIYA CILENGKRANG ASRI No.1, RT.04/RW.06, Cisurupan, Kec. Cibiru, Kota Bandung, Jawa Barat 40616, Indonesia",4.8,12,12,"","","Kedai Kopi","",-6.9096897,107.7232883,"https://www.google.com/maps/search/?api=1&query=SAFIRA%20CAFE&query_place_id=ChIJH_yjnt3daC4R8zNz-StT6YA"
"DE5 Coffee, Jl. Setra Dago Raya No. 4 Antapani Bandung","Jl. Setra Dago Raya No.4, Antapani Kulon, Kec. Antapani, Kota Bandung, Jawa Barat 40291, Indonesia",4.9,7,7,"+62 822-1667-2859","","Kedai Kopi","",-6.9120869,107.6590765,"https://www.google.com/maps/search/?api=1&query=DE5%20Coffee%2C%20Jl.%20Setra%20Dago%20Raya%20No.%204%20Antapani%20Bandung&query_place_id=ChIJ0SDZtHbnaC4REDavJ75qa6Q"
"Point Cafe Ujung Berung 61","Jl. Raya Ujung Berung No.53-65, Pakemitan, Kec. Cinambo, Kota Bandung, Jawa Barat 45474, Indonesia",4.4,207,100,"+62 21 1500280","https://pointcoffee.id/","Kedai Kopi","",-6.9130829,107.6942948,"https://www.google.com/maps/search/?api=1&query=Point%20Cafe%20Ujung%20Berung%2061&query_place_id=ChIJE_hFBIbdaC4ReUtMLIAyzgM"
"C&T coffe shop","Jl. Pasir Kunci, Cipanjalu, Kec. Cilengkrang, Kabupaten Bandung, Jawa Barat 40616, Indonesia",5,2,2,"+62 812-8317-9709","","Restoran","",-6.8974024,107.7145283,"https://www.google.com/maps/search/?api=1&query=C%26T%20coffe%20shop&query_place_id=ChIJl1qeiTPdaC4R9gKXTItLZPk"
"Palma Coffee","Komplek Manglayang Sari Samping A7 No 8, Kota Bandung, Jawa Barat 40615, Indonesia",5,4,4,"+62 851-5632-7729","","Kedai Kopi","",-6.9140004,107.7232794,"https://www.google.com/maps/search/?api=1&query=Palma%20Coffee&query_place_id=ChIJm3tOxondaC4RSzhqNuFWLDQ"
"Suka Sangrai Coffee Roaster","Jl. Sukaasih IV No.53, Sindang Jaya, Kec. Mandalajati, Kota Bandung, Jawa Barat 40293, Indonesia",5,12,12,"+62 878-2558-2371","http://www.tokopedia.com/sukasangrairoast","Kedai Kopi","",-6.9020488,107.6863415,"https://www.google.com/maps/search/?api=1&query=Suka%20Sangrai%20Coffee%20Roaster&query_place_id=ChIJ-4gs5hTdaC4RcJPEHNS_ikY"
"MAKNA HOUSE (Coffee & Tea)","Komp. Bumi Asri A-19 Ujung Berung, Cipadung Kulon, Kec. Panyileukan, Kota Bandung, Jawa Barat 40614, Indonesia",4.3,29,29,"+62 877-2695-7403","http://instagram.com/makna_coffee","Kedai Kopi","",-6.9200944,107.7078298,"https://www.google.com/maps/search/?api=1&query=MAKNA%20HOUSE%20(Coffee%20%26%20Tea)&query_place_id=ChIJV28tzV3daC4R1uEP3aN1Nf4"
"NALA SPACE","Jl. AH. Nasution No.266B, Cisaranten Kulon, Kec. Arcamanik, Kota Bandung, Jawa Barat 40294, Indonesia",4.4,563,100,"+62 881-7840-500","https://www.instagram.com/nalaspacebdg","Kafe","",-6.9081625,107.6874018,"https://www.google.com/maps/search/?api=1&query=NALA%20SPACE&query_place_id=ChIJG35cE3ndaC4R7AYazaUMBag"
"Hilari Coffee","Jalan mayang asih no.2 rt01 rw05 kel, Pasir Endah, Kec. Ujung Berung, Kota Bandung, Jawa Barat 40619, Indonesia",4.8,14,14,"+62 882-1187-2433","","Kedai Kopi","",-6.9048065,107.6900355,"https://www.google.com/maps/search/?api=1&query=Hilari%20Coffee&query_place_id=ChIJceJcxLDdaC4RFXcIm05TTfU"
"B'Creative Coffee & Merchant","Jl. Indramayu No.41, Antapani Kidul, Kec. Antapani, Kota Bandung, Jawa Barat 40291, Indonesia",4.8,19,19,"+62 812-2395-2198","","Kedai Kopi","",-6.9193801,107.6575622,"https://www.google.com/maps/search/?api=1&query=B'Creative%20Coffee%20%26%20Merchant&query_place_id=ChIJaxlvfSznaC4RG8umwdXdJt0"
"dr.ells coffee Antapani","Jl. Purwakarta No.116, Babakan Surabaya, Kec. Antapani, Kota Bandung, Jawa Barat 40291, Indonesia",4.1,101,100,"","","Kedai Kopi","",-6.9164655,107.6545336,"https://www.google.com/maps/search/?api=1&query=dr.ells%20coffee%20Antapani&query_place_id=ChIJvWsbdA7naC4RmNB3-Xmclp8"
"Pinoes Coffee","Jl. Kuningan Raya No.28, Antapani Tengah, Kec. Antapani, Kota Bandung, Jawa Barat 40291, Indonesia",4.8,20,20,"+62 815-7346-1985","","Kedai Kopi","",-6.915284,107.6605854,"https://www.google.com/maps/search/?api=1&query=Pinoes%20Coffee&query_place_id=ChIJdQphNj3naC4RSXEX_y-MMbM"
"eRBe Coffee and Roastery","Jl. Sekehaji Raya No.8, Jatiendah, Kec. Cilengkrang, Kabupaten Bandung, Jawa Barat 40619, Indonesia",5,5,5,"","","Kedai Kopi","",-6.9008141,107.6927213,"https://www.google.com/maps/search/?api=1&query=eRBe%20Coffee%20and%20Roastery&query_place_id=ChIJX5XF_8fdaC4RLglH9NzufTw"
"Hitam Putih Coffee","3MQW+7C3, Jl. Ujungberung Indah Raya, Cigending, Kec. Ujung Berung, Kota Bandung, Jawa Barat 40611, Indonesia",5,14,14,"+62 896-9345-9776","","Kedai Kopi","",-6.9118614,107.6960432,"https://www.google.com/maps/search/?api=1&query=Hitam%20Putih%20Coffee&query_place_id=ChIJiS1MwT7daC4RrNpDHKDso6c"
"COFFEE SHOP CAKRABUANA","4MHV+8X9, Pamoyanan, Mekarmanik, Cimenyan, Bandung Regency, West Java, Indonesia",5,8,8,"+62 838-2093-6831","","Kedai Kopi","",-6.8722792,107.6952755,"https://www.google.com/maps/search/?api=1&query=COFFEE%20SHOP%20CAKRABUANA&query_place_id=ChIJDUaXtFzdaC4R7Olk4_QvaVw"
"KENARI COFFEE","Jl. Setra Dago Utama No.27, Antapani Wetan, Kec. Antapani, Kota Bandung, Jawa Barat 40291, Indonesia",5,11,11,"","","Kedai Kopi","",-6.9086972,107.6615467,"https://www.google.com/maps/search/?api=1&query=KENARI%20COFFEE&query_place_id=ChIJ7bDJPfPnaC4RAD88N2FM-yI"
"NOISE-excel Coffee Place","Jl. Purwakarta No.139H, Antapani Tengah, Kec. Antapani, Kota Bandung, Jawa Barat 40291, Indonesia",4.8,22,22,"+62 897-0797-021","","Kafe","",-6.9172364,107.6586019,"https://www.google.com/maps/search/?api=1&query=NOISE-excel%20Coffee%20Place&query_place_id=ChIJBROPjKznaC4R4HlikdGebgM"
"Sawanni coffee","Jl. Padasuka Atas No.55, Pasirlayung, Kec. Cibeunying Kidul, Kota Bandung, Jawa Barat 40192, Indonesia",4.8,13,13,"+62 812-2327-2501","","Kedai Kopi","",-6.8983675,107.6543423,"https://www.google.com/maps/search/?api=1&query=Sawanni%20coffee&query_place_id=ChIJbzCFWcnnaC4RRth19uhy0Lc"
"Setter Coffee","Jl. Golf I No.68, Cisaranten Bina Harapan, Kec. Arcamanik, Kota Bandung, Jawa Barat 40294, Indonesia",5,23,23,"+62 819-0216-4665","","Kedai Kopi","",-6.9140339,107.6884924,"https://www.google.com/maps/search/?api=1&query=Setter%20Coffee&query_place_id=ChIJbwU2t2fdaC4RtF-vI2sPdtg"
"Sora Car Wash & Cafe","Jl. AH. Nasution No.82, RW.KM 7, Sukamiskin, Kec. Arcamanik, Kota Bandung, Jawa Barat 40293, Indonesia",4.8,476,100,"+62 821-8888-2881","","Tempat Pencucian Mobil","",-6.9043716,107.6702719,"https://www.google.com/maps/search/?api=1&query=Sora%20Car%20Wash%20%26%20Cafe&query_place_id=ChIJbVVXMwDdaC4RO0cu5-OXc_U"
"Point Cafe Ahmad Yani 806","Jl. A. Yani No.806, Cicaheum, Kec. Kiaracondong, Kota Bandung, Jawa Barat 40282, Indonesia",4.6,258,100,"+62 21 1500280","https://pointcoffee.id/","Kedai Kopi","",-6.9027165,107.6548755,"https://www.google.com/maps/search/?api=1&query=Point%20Cafe%20Ahmad%20Yani%20806&query_place_id=ChIJB1sxmxHnaC4RWyioQqkEzoQ"
"Amateur Coffee","Jl. Kuningan 1 No.15, Antapani Tengah, Kec. Antapani, Kota Bandung, Jawa Barat 40291, Indonesia",5,46,46,"","https://gofood.link/a/yM9WRUQ","Kedai Kopi","",-6.9153462,107.6615826,"https://www.google.com/maps/search/?api=1&query=Amateur%20Coffee&query_place_id=ChIJKTxw0uTnaC4R5h3CeJ5S5E8"
"Samson Coffee Garage","Jl. Cikampek 7 No.36, Antapani Tengah, Kec. Antapani, Kota Bandung, Jawa Barat 40291, Indonesia",5,18,18,"+62 821-8166-6079","","Kedai Kopi","",-6.9165884,107.656043,"https://www.google.com/maps/search/?api=1&query=Samson%20Coffee%20Garage&query_place_id=ChIJe3eC3B_naC4Rf1y3F57JJQc"
"Sunrai Coffe","kp cibanteng desa, RT.2/RW.11, Mandalamekar, Kec. Cimenyan, Kabupaten Bandung, Jawa Barat 40193, Indonesia",5,11,11,"+62 813-2096-0693","","Kedai Kopi","",-6.864688,107.6763579,"https://www.google.com/maps/search/?api=1&query=Sunrai%20Coffe&query_place_id=ChIJVeRoL8LdaC4R-BnRjFlftC8"
"Apo coffee","Griya cipadung asri No.b1/b2, palasari, Cipadung, Kec. Cibiru, Kota Bandung, Jawa Barat 40614, Indonesia",4.7,77,77,"+62 821-2156-8711","","Kafe","",-6.915651,107.7243206,"https://www.google.com/maps/search/?api=1&query=Apo%20coffee&query_place_id=ChIJU37I5sPDaC4RE9l72XEcUvU"
"Dapur Caringin Tilu","Jl. Padasuka Atas Kampung Caringin 3 No.41, Cimenyan, Kec. Cimenyan, Kabupaten Bandung, Jawa Barat 40197, Indonesia",4.4,3299,100,"+62 818-631-493","https://instagram.com/dapurcaringintilu?igshid=1gt2b7rc4h5bt","Kafe","$$",-6.860834,107.6638571,"https://www.google.com/maps/search/?api=1&query=Dapur%20Caringin%20Tilu&query_place_id=ChIJGW01k17naC4R4cxG84g__S0"
"Moje coffee","Jl. Boling No.22, Sukamiskin, Kec. Arcamanik, Kota Bandung, Jawa Barat 40293, Indonesia",4.8,18,18,"+62 822-9556-2841","","Kedai Kopi","",-6.9204319,107.6731601,"https://www.google.com/maps/search/?api=1&query=Moje%20coffee&query_place_id=ChIJB5l2cADdaC4RPCJLyOJuIeQ"
"Mood Coffee Shop","Jl. Sukaasih Raya No.2, Sindang Jaya, Kec. Mandalajati, Kota Bandung, Jawa Barat 40195, Indonesia",5,1,1,"+62 813-2318-8001","https://mp.possaku.com/marketplace/?store=1763387110059","Kedai Kopi","",-6.90679,107.685894,"https://www.google.com/maps/search/?api=1&query=Mood%20Coffee%20Shop&query_place_id=ChIJrc81UgDdaC4RWCOv2ZZX8x0"
"Join Us Cafe | Coffee | | Open Kitchen | Event Space | VIP Room","Jl. Terusan Jakarta No.254, Antapani Tengah, Kec. Antapani, Kota Bandung, Jawa Barat 40291, Indonesia",4.4,771,100,"+62 811-2120-170","https://lynk.id/join_us_cafe","Kafe","",-6.9148492,107.6648254,"https://www.google.com/maps/search/?api=1&query=Join%20Us%20Cafe%20%7C%20Coffee%20%7C%20%7C%20Open%20Kitchen%20%7C%20Event%20Space%20%7C%20VIP%20Room&query_place_id=ChIJmWzea_fnaC4RTV9Dsopcdk0"
"The Warung Kopi By MG","Ubertos, Jl. AH. Nasution No.46A, Pakemitan, Kec. Cinambo, Kota Bandung, Jawa Barat 40294, Indonesia",4.3,279,100,"+62 822-1999-4814","","Kedai Kopi","",-6.9154607,107.6961419,"https://www.google.com/maps/search/?api=1&query=The%20Warung%20Kopi%20By%20MG&query_place_id=ChIJje1L0XvdaC4RkiBVyjV23qg"
"KBU Coffee","Jl. Cijambe, Jatiendah, Kec. Cilengkrang, Kabupaten Bandung, Jawa Barat 40616, Indonesia",4.7,113,100,"+62 877-2048-5244","https://www.instagram.com/kbucoffee/","Kedai Kopi","",-6.8992775,107.6989002,"https://www.google.com/maps/search/?api=1&query=KBU%20Coffee&query_place_id=ChIJB-JkIyLdaC4Rlx7D0roHVs0"
"Advena Coffee","Jl. Cinangka No.1, Pasirwangi, Kec. Ujung Berung, Kota Bandung, Jawa Barat 40616, Indonesia",5,11,11,"+62 821-1521-4115","","Kedai Kopi","",-6.9041259,107.7043552,"https://www.google.com/maps/search/?api=1&query=Advena%20Coffee&query_place_id=ChIJLZF1Ha3daC4RIA_3peUfZi4"
"Joeag Sunda Coffee","Jl. Subang No.24, RT.004/RW.002, Antapani Tengah, Kec. Antapani, Kota Bandung, Jawa Barat 40291, Indonesia",4.9,75,75,"+62 831-9551-4525","","Kedai Kopi","$",-6.9139718,107.6549184,"https://www.google.com/maps/search/?api=1&query=Joeag%20Sunda%20Coffee&query_place_id=ChIJcUiase_naC4R_HHAUvvdoDc"
"AQUAIR_CoffeeRium","Jl. Terusan Jakarta No.80, Antapani Tengah, Kec. Antapani, Kota Bandung, Jawa Barat 40121, Indonesia",4.8,37,37,"+62 878-9365-2646","https://www.instagram.com/aquair_coffeeriumbandung?igsh=MWY5aGZhcHNleG0xaA==","Kedai Kopi","",-6.9126009,107.6535867,"https://www.google.com/maps/search/?api=1&query=AQUAIR_CoffeeRium&query_place_id=ChIJ6zyEALPnaC4RcUFSbcF2Jcw"
"Teras Kayumanis","Jl. Cilengkrang II No.79, Palasari, Kec. Cibiru, Kota Bandung, Jawa Barat 40615, Indonesia",4.6,391,100,"+62 822-1642-6336","https://www.instagram.com/bakmikayumanis","Kafe","",-6.9159286,107.7199904,"https://www.google.com/maps/search/?api=1&query=Teras%20Kayumanis&query_place_id=ChIJP95h8_HdaC4RhI8ERjMLbm8"
"Colada","Jl. Purwakarta No.192, Antapani Kidul, Kec. Antapani, Kota Bandung, Jawa Barat 40291, Indonesia",4.6,582,100,"+62 812-2390-6180","","Restoran Meksiko","",-6.9174763,107.6594657,"https://www.google.com/maps/search/?api=1&query=Colada&query_place_id=ChIJudtq1XvnaC4R4RpzHlq0ObQ"
"Nuku Coffee & Eatery","Jl. Malangbong Raya No.1, Antapani Wetan, Antapani, Bandung City, West Java 40291, Indonesia",4.7,12,12,"+62 812-2286-6066","","Kafe","",-6.9138493,107.6666382,"https://www.google.com/maps/search/?api=1&query=Nuku%20Coffee%20%26%20Eatery&query_place_id=ChIJg_srTZvpaC4RRV69gpShoVw"
"Bingkai Coffee","Jl. Arcamanik No.47, Pasir Impun, Kec. Mandalajati, Kota Bandung, Jawa Barat 40293, Indonesia",4.7,189,100,"+62 818-209-195","","Kedai Kopi","",-6.9023994,107.6801026,"https://www.google.com/maps/search/?api=1&query=Bingkai%20Coffee&query_place_id=ChIJGd7p0mfdaC4RuZSmrxGdUUg"
"Cafe Senja","Jl. Jatihandap, Mandalamekar, Kec. Cimenyan, Kabupaten Bandung, Jawa Barat 40293, Indonesia",4.4,1644,100,"+62 811-1245-333","","Kedai Kopi","",-6.87687,107.6756664,"https://www.google.com/maps/search/?api=1&query=Cafe%20Senja&query_place_id=ChIJFR4g7YfdaC4R-NpxN8dzkX4"
"Twentynine Coffee & Eatery","Jl. Cicukang No.36, Cisaranten Bina Harapan, Kec. Arcamanik, Kota Bandung, Jawa Barat 40294, Indonesia",5,16,16,"+62 821-1384-8191","","Kedai Kopi","",-6.9164628,107.6846809,"https://www.google.com/maps/search/?api=1&query=Twentynine%20Coffee%20%26%20Eatery&query_place_id=ChIJP1l4dlLdaC4RJAWx04gDe3w"
"Roempi Coffee Ujung Berung","Jl. Rumah Sakit No.33, Pakemitan, Kec. Cinambo, Kota Bandung, Jawa Barat 45474, Indonesia",4.5,123,100,"","","Kedai Kopi","",-6.9163509,107.6992948,"https://www.google.com/maps/search/?api=1&query=Roempi%20Coffee%20Ujung%20Berung&query_place_id=ChIJCVjCDKjdaC4RtdVk7J0iiqE"
"PULUNG Art Café","Jl. Puri Dago Tim. I No.3, Sukamiskin, Kec. Arcamanik, Kota Bandung, Jawa Barat 40293, Indonesia",4.7,54,54,"+62 821-2022-7730","","Kafe seni","",-6.9188732,107.6699129,"https://www.google.com/maps/search/?api=1&query=PULUNG%20Art%20Caf%C3%A9&query_place_id=ChIJz3z2kHvdaC4ReCjh9583Ns8"
"Cafe Jabaraya Coffe","Jl. Nagrog No.31, Pasanggrahan, Kec. Ujung Berung, Kota Bandung, Jawa Barat 40616, Indonesia",4.8,24,24,"+62 899-5563-663","","Kafe","",-6.9088459,107.7117341,"https://www.google.com/maps/search/?api=1&query=Cafe%20Jabaraya%20Coffe&query_place_id=ChIJoVIO7ErdaC4RZfB-2JqLOvs"
"Cafe Arabika Bukit Palasari","Legok Nyenang, girimekar no 82, bandung, Kec. Cilengkrang, Kabupaten Bandung, Jawa Barat 40619, Indonesia",4.6,307,100,"+62 818-0214-5730","","Kafe","",-6.8628043,107.7102969,"https://www.google.com/maps/search/?api=1&query=Cafe%20Arabika%20Bukit%20Palasari&query_place_id=ChIJ6xTyALbdaC4R3QwR_bc9kP8"
"Incorner Coffee","Jl. Palapa No.55, Padasuka, Kec. Cimenyan, Kabupaten Bandung, Jawa Barat 40197, Indonesia",4.8,165,100,"+62 852-2005-7261","","Kedai Kopi","",-6.8830683,107.6626891,"https://www.google.com/maps/search/?api=1&query=Incorner%20Coffee&query_place_id=ChIJHxD8fqznaC4R6LKjCpXsv1c"
"Ny.Lucy Bakery & Roastery","Jl. Terusan Jakarta Ruko Puri Dago A6 No.352, Sukamiskin, Kec. Arcamanik, Kota Bandung, Jawa Barat 40291, Indonesia",4.5,835,100,"+62 811-8801-0299","https://www.instagram.com/nylucybakery/","Toko Roti","",-6.9168476,107.668963,"https://www.google.com/maps/search/?api=1&query=Ny.Lucy%20Bakery%20%26%20Roastery&query_place_id=ChIJOfKSi1jnaC4RaMXxClvNGl8"
"Overland Coffee","Depan Sekolah Bintang Madani, Jl. Trs Pesantren, Sukamiskin, Kec. Arcamanik, Kota Bandung, Jawa Barat 40293, Indonesia",5,26,26,"","http://instagram.com/overland.cf","Kedai Kopi","",-6.912841,107.6814621,"https://www.google.com/maps/search/?api=1&query=Overland%20Coffee&query_place_id=ChIJm5Q8QwDdaC4RQVtia3sFImw"
"Cikopi Mang Eko","Jl. Golf Dalam No.2 Blok G, Cisaranten Bina Harapan, Kec. Arcamanik, Kota Bandung, Jawa Barat 40294, Indonesia",4.9,271,100,"+62 813-5050-8811","http://tokopedia.com/cikopimangeko","Kedai Kopi","",-6.9143394,107.6899015,"https://www.google.com/maps/search/?api=1&query=Cikopi%20Mang%20Eko&query_place_id=ChIJhVVlzkfdaC4RL-oJaeZWSL4"
"CAWS (Cafe Asri With Warmindo and Working Space)","Jl. Mekar II No.10A, Pasirlayung, Kec. Cibeunying Kidul, Kota Bandung, Jawa Barat 40192, Indonesia",5,27,27,"","","Kedai Kopi","",-6.8866347,107.6625779,"https://www.google.com/maps/search/?api=1&query=CAWS%20(Cafe%20Asri%20With%20Warmindo%20and%20Working%20Space)&query_place_id=ChIJC0vUedXnaC4RHLXU3dmL2d4"
"Sideway Coffee and Creative Space","Jl. Pasir jati Lama, Jatiendah, Kec. Cilengkrang, Kabupaten Bandung, Jawa Barat 40616, Indonesia",4.8,51,51,"+62 821-1984-3434","","Kedai Kopi","",-6.9049994,107.6949047,"https://www.google.com/maps/search/?api=1&query=Sideway%20Coffee%20and%20Creative%20Space&query_place_id=ChIJRQrfLpHdaC4RCt2oInUNOow"
"Tike Coffee","Jl. Golf Barat Raya No.23, Sukamiskin, Kec. Arcamanik, Kota Bandung, Jawa Barat 40293, Indonesia",4.9,49,49,"+62 821-2808-1907","","Kedai Kopi","",-6.9180303,107.6726174,"https://www.google.com/maps/search/?api=1&query=Tike%20Coffee&query_place_id=ChIJQQ5XvbDdaC4RT6qCWBkcRto"
"K Cafe & Coffee Shop","Jl. AH. Nasution No.958, Antapani Wetan, Kec. Antapani, Kota Bandung, Jawa Barat 40291, Indonesia",4.7,259,100,"+62 811-9088-588","https://www.instagram.com/kcafecoffeeshop/?hl=id","Kafe","",-6.90432,107.6660658,"https://www.google.com/maps/search/?api=1&query=K%20Cafe%20%26%20Coffee%20Shop&query_place_id=ChIJ035gMwTnaC4RKuI9l8o84Yc"
"Molekul Coffee & Eatery","Jl. Pacuan Kuda No.46, Sukamiskin, Kec. Arcamanik, Kota Bandung, Jawa Barat 40293, Indonesia",4.7,179,100,"+62 821-2088-8012","https://instagram.com/molekulcoffee?igshid=m57zcmabau6c","Kafe","",-6.9081874,107.6727302,"https://www.google.com/maps/search/?api=1&query=Molekul%20Coffee%20%26%20Eatery&query_place_id=ChIJMa7J8F7daC4RzrLHldLYjhs"
"Morning Glory Coffee Antapani Outlet","Jl. Terusan Jakarta No.78A, Antapani Tengah, Kec. Antapani, Kota Bandung, Jawa Barat 40291, Indonesia",4.5,956,100,"+62 812-4260-699","","Kedai Kopi","",-6.9126406,107.6533603,"https://www.google.com/maps/search/?api=1&query=Morning%20Glory%20Coffee%20Antapani%20Outlet&query_place_id=ChIJqch-8u7naC4R5HNQbVD2i4E"
"LANGGAR SPACE COFFEE","Jl. Ciporeat No.144, Pasanggrahan, Kec. Ujung Berung, Kota Bandung, Jawa Barat 40617, Indonesia",5,64,64,"+62 857-1808-4603","","Kedai Kopi","",-6.9129886,107.7134852,"https://www.google.com/maps/search/?api=1&query=LANGGAR%20SPACE%20COFFEE&query_place_id=ChIJ1VXdMkrdaC4RX6Sv8grrMq8"
"Beda Cerita Coffee","Jl. Jatihandap No.138, Mandalamekar, Kec. Cimenyan, Kota Bandung, Jawa Barat 40193, Indonesia",4.7,1006,100,"+62 851-7972-1216","http://www.bedaceritacoffee.com/","Kedai Kopi","",-6.8883626,107.6660485,"https://www.google.com/maps/search/?api=1&query=Beda%20Cerita%20Coffee&query_place_id=ChIJ9w4TLIvnaC4Rpo1ND0sCtkk"